Location,Latitude,Longitude
Mushroom Rocks,17.4586,78.3311
Peacock Lake,17.4557,78.3282
Health Center,17.4581,78.3295
SEST,17.4562,78.3273
High Rocks,17.4593,78.3305
Helipad,17.4601,78.3332
North Hostel,17.4575,78.334
South Hostel,17.4532,78.3331
Admin Block,17.4579,78.3271
Library,17.4572,78.3269
South Campus Gate,17.4502,78.337
Canteen Area,17.456,78.3285
